Time	roll	pitch	yaw	lat	lon	alt
1	-3.74	1.76	139.71	33.0301	-112.0386	0
2	-4.71	2.46	161.6	33.03	-112.0386	0
3	-1.51	3.88	-77.8	33.03	-112.0386	0
4	-5.6	2.37	-26.95	33.0299	-112.0387	0
5	-5.93	-0.66	6.46	33.0298	-112.0387	0
6	-5.09	-3.23	65.44	33.0298	-112.0387	0
7	-3.05	-1.09	108.03	33.0297	-112.0387	0
8	-3.68	-2.38	104.53	33.0297	-112.0387	0
9	-3.7	-0.87	-174.62	33.0297	-112.0387	0
10	-0.44	0.22	19.07	33.0297	-112.0387	0
11	-1.52	0.22	74.83	33.0297	-112.0388	0
12	-4.06	3.2	93.25	33.0296	-112.0388	0
13	-5.02	1.09	132.66	33.0296	-112.0388	0
14	-3.02	-0.22	143.01	33.0296	-112.0389	0
15	-5.25	-1.53	92.99	33.0294	-112.039	0
16	-3.99	-1.33	112.31	33.0293	-112.0391	0
17	-5.82	0.86	116.23	33.0292	-112.0391	0
18	-5.39	-0.43	168.19	33.0292	-112.0391	0
19	-10.93	0	-115.25	33.0291	-112.0391	0
20	-7.67	1.75	-63.49	33.0291	-112.039	0
21	-0.86	-0.65	-1.23	33.029	-112.039	0
22	-2.62	-0.87	63.28	33.0289	-112.039	0
23	-5.06	1.54	96.04	33.0289	-112.0391	0
24	-5.09	0	125.47	33.0289	-112.0391	0
25	-2.78	0.43	-88.77	33.0288	-112.0391	0
26	-2.62	3.06	39.42	33.0288	-112.0391	0
27	-2.83	1.74	0	33.0288	-112.0391	0
28	-5.51	0.88	-135.91	33.0286	-112.0392	0
29	-3.52	-0.22	-31.67	33.0286	-112.0392	0
30	-2.19	-5.47	13.95	33.0285	-112.0392	0
31	-5.07	-4.4	47.38	33.0284	-112.0392	0
32	-5.73	-0.22	83.45	33.0284	-112.0392	0
33	-4.75	-2.37	104.41	33.0283	-112.0391	0
34	-3.52	-3.73	122.86	33.0283	-112.0391	0
35	-5.07	-2.42	179.06	33.0283	-112.0391	0
36	-5.49	-3.29	-89.6	33.0283	-112.039	0
37	-3.04	-2.6	-46.04	33.0282	-112.039	0
38	-2.35	-2.35	-17.71	33.0282	-112.039	0
39	-2.82	0.43	20.9	33.0282	-112.039	0
40	-4.84	0	80.57	33.0281	-112.0391	0
41	-3.55	0	85.74	33.0281	-112.0391	0
42	-4.38	0	81.75	33.028	-112.0391	0
43	-3.06	-1.31	66.89	33.0279	-112.039	0
44	-3.52	-2.42	61.4	33.0279	-112.039	0
45	-1.1	-3.52	83.55	33.0278	-112.039	0
46	-3.26	0	145.87	33.0278	-112.039	0
47	-2.61	1.09	-148.95	33.0277	-112.039	0
48	-4.65	0.89	-90.32	33.0277	-112.0389	0
49	-2.86	-0.44	-46.13	33.0276	-112.0389	0
50	-3.3	1.76	-18.69	33.0276	-112.0389	0
51	-5.69	1.53	-0.26	33.0276	-112.0388	0
52	-5.06	2.85	38.1	33.0276	-112.0388	0
53	-5.39	1.94	83.98	33.0275	-112.0388	0
54	-5.43	0.65	134.49	33.0275	-112.0388	0
55	-4.09	-0.43	-178.88	33.0274	-112.0388	0
56	-2.59	4.74	-159.02	33.0274	-112.0388	0
57	-9	3.93	-119.74	33.0273	-112.0388	0
58	-8.22	7.05	-101.43	33.0272	-112.0388	0
59	-1.1	0	-46.79	33.0271	-112.0388	0
60	-4.26	-1.57	-2.92	33.0271	-112.0388	0
61	-3.38	0.45	40.84	33.027	-112.0387	0
62	-4.31	0.23	73.77	33.0269	-112.0387	0
63	-4.02	-3.57	65.99	33.0269	-112.0387	0
64	0.64	1.93	52.93	33.0269	-112.0387	0
65	-2.62	1.75	68.73	33.0268	-112.0387	0
66	-4.46	1.27	97.68	33.0268	-112.0386	0
67	-2.17	0.43	101.5	33.0268	-112.0386	0
68	-2.33	0.64	113.48	33.0267	-112.0386	0
69	-3.63	0.21	-171.47	33.0267	-112.0387	0
70	-4.98	0	-45.98	33.0266	-112.0387	0
71	-8.7	0	-25.59	33.0265	-112.0387	0
72	-3.8	0.67	-5.08	33.0264	-112.0387	0
73	-1.08	0.65	12.09	33.0263	-112.0387	0
74	-5.69	0.66	-7.48	33.0263	-112.0387	0
75	-7.67	0.66	-29.54	33.0262	-112.0386	0
76	-5.56	4.43	-47.78	33.0261	-112.0386	0
77	-3.29	0.22	-20.88	33.026	-112.0386	0
78	-5.21	1.52	11.1	33.0259	-112.0386	0
79	-0.43	-0.65	-23.33	33.0259	-112.0385	0
80	-2.02	0.45	-116.84	33.0258	-112.0385	0
81	-3.19	-1.37	-164.82	33.0257	-112.0385	0
82	-6.98	1.16	131.83	33.0256	-112.0385	0
83	-6.18	-1.48	122.65	33.0254	-112.0384	11195.6
84	-4.73	-0.9	132	33.0253	-112.0383	11195.6
85	-4.3	-2.36	68.77	33.0252	-112.0383	11195.6
86	-1.47	-3.56	-16.16	33.0251	-112.0383	11195.6
87	-0.83	-1.25	-113.58	33.025	-112.0382	11195.6
88	-3.97	-2.5	-178.56	33.0249	-112.0382	11195.6
89	-4.37	0.42	-152.34	33.0248	-112.0382	11195.6
90	-5.29	0.63	-74.73	33.0247	-112.0382	11195.6
91	-6.1	1.3	-71.04	33.0246	-112.0382	11195.6
92	-9.29	4.72	-89.07	33.0245	-112.0381	11195.6
93	-5.73	-0.42	-134.87	33.0245	-112.0381	11195.6
94	-1.13	0.68	122.96	33.0244	-112.0381	11195.6
95	-3.12	1.11	102.43	33.0244	-112.0381	11195.6
96	-2.95	2.95	119.53	33.0243	-112.0381	11195.6
97	-6.21	1.15	78.72	33.0243	-112.0381	11195.6
98	-3.23	0	34.82	33.0242	-112.0381	11319.1
99	-5.15	3.58	-8.29	33.0241	-112.0381	11319.1
100	-4.38	-0.66	-36.69	33.0241	-112.0381	11319.1
101	-4.59	-1.88	-144.53	33.024	-112.0381	11319.1
102	-1.49	-0.64	159.99	33.024	-112.0382	11319.1
103	-2.97	4.02	148.27	33.0239	-112.0382	11319.1
104	-3.98	1.26	131.02	33.0239	-112.0382	11319.1
105	-2.12	1.7	71.74	33.0238	-112.0382	11319.1
106	-5.94	-1.06	40.66	33.0237	-112.0383	11319.1
107	-3.71	-1.09	41.27	33.0236	-112.0383	11319.1
108	-2.87	0.66	52.55	33.0235	-112.0383	11319.1
109	-5.28	0	109.95	33.0234	-112.0383	11319.1
110	-1.76	3.72	-135.65	33.0234	-112.0383	11319.1
111	-4.51	2.58	-66.48	33.0233	-112.0382	11319.1
112	-5.78	2	4.16	33.0232	-112.0382	11319.1
113	-6.29	-2.3	162.58	33.023	-112.0382	11319.1
114	-7.64	-2.67	-95.04	33.023	-112.0382	11319.1
115	-2.41	-2.41	3.56	33.023	-112.0382	11319.1
116	-1.3	-1.51	41.13	33.0229	-112.0382	11319.1
117	-1.95	0	70.78	33.0229	-112.0382	11319.1
118	-3.09	-0.44	164.72	33.0228	-112.0382	11319.1
119	-1.13	1.13	-80.85	33.0227	-112.0382	11319.1
120	-6.75	-1.09	11.54	33.0227	-112.0383	11319.1
121	-2.58	0.65	94.33	33.0226	-112.0383	11319.1
122	-1.97	0.44	-153.83	33.0226	-112.0383	11319.1
123	-2.28	-2.96	-56.68	33.0225	-112.0383	11319.1
124	-2.28	-0.23	0	33.0224	-112.0384	11319.1
125	2.58	-3.01	34.3	33.0224	-112.0384	11319.1
126	-4.15	-3.27	77.15	33.0223	-112.0383	11319.1
127	-2.83	1.52	120.55	33.0221	-112.0383	11570.9
128	-3.25	-2.17	90.15	33.0221	-112.0382	11570.9
129	-7.7	0.44	75.2	33.022	-112.0382	11570.9
130	-5.53	1.77	125.27	33.022	-112.0382	11570.9
131	-8.63	-0.44	-177.71	33.0219	-112.0382	11570.9
132	-8.07	-4.68	164.74	33.0219	-112.0381	11570.9
133	-0.21	-0.43	125.62	33.0218	-112.0381	11570.9
134	-4.32	1.94	87.91	33.0218	-112.0381	11570.9
135	-4.51	0.43	74.75	33.0217	-112.0381	11570.9
136	-5.56	2.35	88.08	33.0217	-112.0381	11570.9
137	-3.58	1.05	137.56	33.0217	-112.0381	11570.9
138	-6.27	-0.22	155.88	33.0216	-112.0381	11570.9
139	-3.29	-2.19	112.91	33.0215	-112.0381	11570.9
140	-2.42	1.54	79.04	33.0215	-112.0381	11570.9
141	-2.09	0.21	70.19	33.0214	-112.0381	11689
142	-4.1	-1.51	71.66	33.0214	-112.0381	11689
143	-3.08	0.22	118.9	33.0213	-112.0381	11689
144	-4.35	-2.82	162.05	33.0213	-112.0381	11689
145	-6.85	-3.3	135.52	33.0212	-112.0381	11689
146	-8.53	-4.78	123.21	33.0212	-112.038	11689
147	-6.57	1.69	153.59	33.0211	-112.038	11689
148	-1.74	1.08	-146.69	33.021	-112.038	11689
149	-4.12	-7.11	-165.6	33.0209	-112.0379	11689
150	-2.37	-2.58	125.14	33.0208	-112.0379	11689
151	-2.75	0	166.01	33.0207	-112.0379	11689
152	-4.8	-2.83	-74.25	33.0207	-112.038	11689
153	-6.61	-1.32	-114.68	33.0206	-112.038	11689
154	-5.54	3.61	173.25	33.0206	-112.038	11689
155	-5.43	-1.3	124.18	33.0205	-112.038	11689
156	-3.07	0.22	17.74	33.0203	-112.038	11689
157	-3.67	-3.66	-170.03	33.0202	-112.038	11689
158	-2.85	-0.66	144.17	33.0202	-112.0381	11689
159	-5.51	1.54	143.11	33.0201	-112.0381	11689
160	-3.67	-0.65	87.9	33.02	-112.0382	11689
161	-3.51	-2.19	9.08	33.0199	-112.0382	11689
162	-6.37	-0.45	-71.32	33.0198	-112.0382	11689
163	-2.02	0.67	150.83	33.0197	-112.0383	11689
164	-5.42	1.8	44.27	33.0197	-112.0384	11689
165	-6.62	0	9.81	33.0196	-112.0384	11689
166	-5.62	-1.8	2.1	33.0196	-112.0385	11689
167	-3.78	0.22	-34.86	33.0195	-112.0385	11689
168	-5.71	0.44	-47.22	33.0195	-112.0386	11689
169	-8.68	2.59	-65.08	33.0194	-112.0386	11689
170	-6.18	2.26	-139	33.0194	-112.0387	11689
171	-1.25	0.42	168.71	33.0193	-112.0387	11689
172	-3.76	0.83	94.27	33.0192	-112.0387	11689
173	-5.73	1.91	55.08	33.0191	-112.0387	11689
174	-4.4	0.22	25.3	33.0191	-112.0387	11689
175	-2.24	1.34	-7.09	33.019	-112.0387	11689
176	-0.94	1.41	-66.06	33.019	-112.0388	11689
177	-1.73	0	166.83	33.0189	-112.0388	11689
178	-6.99	2.92	95.4	33.0188	-112.0389	11689
179	1.88	1.04	83.88	33.0188	-112.0389	11689
180	-3.11	4.55	25.1	33.0188	-112.039	11689
181	-0.82	-1.03	-33.26	33.0187	-112.039	11689
182	-3.38	0.84	-84.15	33.0187	-112.039	11689
183	-7.54	-0.21	-118.47	33.0187	-112.0391	12063.9
184	-3.54	4.57	163.09	33.0187	-112.0391	12063.9
185	-3.4	3.19	127.48	33.0186	-112.039	12063.9
186	-0.66	1.53	68.27	33.0185	-112.039	12063.9
187	-0.66	4.84	6.1	33.0185	-112.039	12063.9
188	-7.62	4.24	-38.5	33.0184	-112.0391	12063.9
189	-5.19	0.68	-59.84	33.0184	-112.0391	12063.9
190	-1.79	1.34	-112.65	33.0184	-112.0391	12063.9
191	-7.13	3.01	132.33	33.0183	-112.039	12063.9
192	-3.76	3.96	143.63	33.0183	-112.039	12063.9
193	-0.2	-1.84	175.77	33.0182	-112.039	12063.9
194	-1.31	-2.39	95.89	33.0181	-112.039	12063.9
195	-1.54	0	14.97	33.018	-112.0389	12063.9
196	-5.35	2.78	-32.52	33.018	-112.0389	12063.9
197	-4.34	-0.21	-14.7	33.0179	-112.0389	12063.9
198	-2.61	-2.83	-1.59	33.0179	-112.0388	12200.1
199	-5.53	-1.77	-25.18	33.0178	-112.0387	12200.1
200	-8.1	-1.74	-41.47	33.0178	-112.0387	12200.1
201	-5.13	0.89	-57.03	33.0178	-112.0387	12200.1
202	-4.2	1.32	-60.43	33.0177	-112.0387	12200.1
203	-5.37	0.21	-9.91	33.0177	-112.0387	12200.1
204	-3.62	1.49	48.52	33.0176	-112.0387	12200.1
205	-1.1	-1.54	57.98	33.0176	-112.0387	12200.1
206	-6.9	-0.89	35.83	33.0176	-112.0387	12200.1
207	-5.14	-3.42	8.18	33.0175	-112.0387	12200.1
208	-2.3	0.63	-16.71	33.0175	-112.0387	12200.1
209	-3.09	0.62	-6.16	33.0174	-112.0387	12200.1
210	-1.78	1.33	34.12	33.0173	-112.0387	12200.1
211	-0.22	0.22	61.96	33.0172	-112.0387	12200.1
212	-0.41	-0.61	51.04	33.0172	-112.0387	12200.1
213	-5.81	0.21	47.73	33.0172	-112.0386	12200.1
214	-2.82	-0.87	102.76	33.0172	-112.0386	12200.1
215	-2.43	-1.55	-157.47	33.0172	-112.0386	12200.1
216	-4.67	-3.33	-33.98	33.0172	-112.0386	12200.1
217	-6.94	0	27.34	33.0172	-112.0386	12200.1
218	-2.41	-1.53	108.76	33.0172	-112.0386	12200.1
219	-5.65	-3.46	127.69	33.0172	-112.0386	12200.1
220	-0.64	-1.71	98.42	33.0172	-112.0387	12200.1
221	-2.94	0.42	120.7	33.0172	-112.0387	12200.1
222	-3.52	0	-173.12	33.0172	-112.0387	12200.1
223	-2.66	0.67	-153.81	33.0172	-112.0387	12200.1
224	-0.87	-1.74	-175.8	33.0172	-112.0387	12200.1
225	-5.45	-0.87	142.57	33.0172	-112.0386	12200.1
226	-5.29	-1.54	116.85	33.0172	-112.0386	12200.1
227	-1.1	0	113.06	33.0172	-112.0386	12200.1
228	-2.86	-2.2	-55.68	33.0173	-112.0386	12200.1
229	-1.54	-3.08	14.43	33.0173	-112.0385	12200.1
230	0.43	-3.2	-22.21	33.0173	-112.0385	12200.1
231	-5.99	-4.26	-51.15	33.0173	-112.0384	12200.1
232	-6.34	2.18	11.53	33.0172	-112.0384	12200.1
233	-5.69	-0.21	63.5	33.0172	-112.0383	12200.1
234	-5.21	-5.19	73.46	33.0172	-112.0384	12200.1
235	-4.78	-3.47	104.31	33.0172	-112.0384	12200.1
236	-3.81	1.27	125.94	33.0173	-112.0384	12200.1
237	-2.61	0.87	130.93	33.0173	-112.0384	12200.1
238	-6.85	0.22	138.47	33.0173	-112.0384	12200.1
239	-4.58	-1.31	-137.8	33.0173	-112.0383	12200.1
240	-1.3	-4.98	-51.77	33.0173	-112.0383	12200.1
241	-7.79	-1.33	-85.53	33.0172	-112.0382	12200.1
242	-5.47	-0.87	-111.56	33.0172	-112.0382	12200.1
243	-1.95	-1.73	-175.54	33.0172	-112.0382	12200.1
244	-7.88	-1.09	157.3	33.0172	-112.0382	12200.1
245	-10.27	3.55	-135.82	33.0172	-112.0381	12200.1
246	-5.4	-0.45	-76.35	33.0172	-112.0381	12200.1
247	-4.07	-2.26	-172.83	33.0172	-112.0381	12200.1
248	-1.54	-0.44	147.36	33.0172	-112.0381	12200.1
249	-6.59	1.59	114.39	33.0172	-112.0381	12200.1
250	-7.73	0	77.71	33.0172	-112.0381	12200.1
251	-6.01	-0.69	36.97	33.0172	-112.0381	12200.1
252	-5.4	-2.92	-3.19	33.0172	-112.0381	12200.1
253	-3.52	-3.51	-120.4	33.0172	-112.0381	12200.1
254	2.52	-2.1	82.69	33.0172	-112.0381	12200.1
255	-6.66	0.62	11.38	33.0173	-112.0381	12671.4
256	-5.78	-0.44	27.42	33.0174	-112.038	12671.4
257	-1.5	-1.07	2.25	33.0174	-112.038	12671.4
258	-8.49	2.75	-17.04	33.0174	-112.0379	12671.4
259	-3.54	2.91	45.85	33.0175	-112.0378	12671.4
260	-4.92	-1.92	71.23	33.0175	-112.0377	12671.4
261	-3.68	1.52	-12.67	33.0175	-112.0377	12671.4
262	-6.39	-2.2	-81.33	33.0176	-112.0376	12671.4
263	-2.15	0	-82.66	33.0176	-112.0375	12671.4
264	-4.42	1.76	-141.75	33.0176	-112.0375	12671.4
265	-2.85	-1.1	-160.24	33.0177	-112.0374	12671.4
266	-0.46	0.23	-172.1	33.0177	-112.0373	12671.4
267	-4.01	0.44	161.36	33.0178	-112.0372	12671.4
268	-1.75	-5.45	131.84	33.0178	-112.0371	12671.4
269	-0.43	0.64	60.75	33.0179	-112.0369	12817.3
270	-9.02	1.12	83.73	33.018	-112.0368	12817.3
271	-5.09	0.23	169.58	33.0181	-112.0367	12817.3
272	-2.7	-1.13	-137.93	33.0182	-112.0366	12817.3
273	-1.8	-3.81	-105.3	33.0182	-112.0365	12817.3
274	-7.88	2.62	-27.53	33.0183	-112.0364	12817.3
275	2.36	0	73.51	33.0184	-112.0363	12817.3
276	-4.21	-1.47	58.59	33.0185	-112.0362	12817.3
277	-0.44	-0.87	-46.41	33.0185	-112.036	12817.3
278	-4.87	-1.33	-170.89	33.0186	-112.0359	12817.3
279	-2.14	-0.21	138.59	33.0187	-112.0357	12817.3
280	-6.73	-3.36	47.7	33.0187	-112.0356	12817.3
281	-7.95	-0.21	-27.02	33.0187	-112.0354	12817.3
282	-6.03	1.07	-2.95	33.0187	-112.0353	12817.3
283	-0.87	-2.39	14.33	33.0188	-112.0352	12817.3
284	-2.84	-1.96	-127.94	33.0188	-112.0349	12975.3
285	-3.66	-0.86	78.99	33.0188	-112.0348	12975.3
286	-8.67	-6.71	59.33	33.0189	-112.0346	12975.3
287	-6.76	1.47	46.5	33.0189	-112.0345	12975.3
288	-3.04	4.33	42.58	33.0189	-112.0343	12975.3
289	-1.55	1.78	14.38	33.019	-112.0342	12975.3
290	-8.48	-0.22	-127.79	33.019	-112.034	12975.3
291	-1.51	-3.02	105.75	33.019	-112.0338	12975.3
292	-5.27	-5.67	33.22	33.0191	-112.0337	12975.3
293	2.53	0	-33.01	33.0192	-112.0335	12975.3
294	-6.34	0.23	173.17	33.0192	-112.0333	12975.3
295	-0.86	-4.28	154.73	33.0193	-112.0331	12975.3
296	-0.65	0.22	125.02	33.0193	-112.0329	12975.3
297	-4.1	3.41	75.62	33.0194	-112.0327	12975.3
298	-4.25	0	33.19	33.0194	-112.0323	13124.1
299	0.24	-3.09	7.06	33.0194	-112.0321	13124.1
300	-2.77	1.85	-59.77	33.0194	-112.032	13124.1
301	-7.32	0.44	175.91	33.0194	-112.0317	13124.1
302	-4.3	1.29	167.92	33.0194	-112.0315	13124.1
303	-4.5	0.45	-157.21	33.0194	-112.0313	13124.1
304	-5.03	-3.65	-99.6	33.0194	-112.0311	13124.1
305	-5.05	-2.29	-74.8	33.0194	-112.0308	13124.1
306	-0.43	-1.28	-4.24	33.0194	-112.0306	13124.1
307	-2.29	-2.5	36.96	33.0194	-112.0304	13124.1
308	-4.8	-1.04	25.79	33.0194	-112.0302	13124.1
309	-3.39	-2.54	39.9	33.0194	-112.0299	13124.1
310	-3.46	-0.86	108.35	33.0193	-112.0297	13124.1
311	-2.46	-0.45	133.39	33.0193	-112.0295	13124.1
312	-1.81	-0.91	85.31	33.0193	-112.0293	13124.1
313	-2.14	-0.86	52.24	33.0193	-112.0291	13124.1
314	-3.74	2.08	67.05	33.0193	-112.0287	13124.1
315	-3.52	0.88	126.08	33.0194	-112.0285	13124.1
316	-2.51	2.71	-125.18	33.0194	-112.0283	13124.1
317	-5.1	0.64	-23.49	33.0194	-112.0281	13124.1
318	-5.02	1.52	19.39	33.0194	-112.0279	13124.1
319	-4.58	0.22	45.29	33.0194	-112.0278	13124.1
320	-3.95	0.44	65.62	33.0193	-112.0276	13124.1
321	-0.44	-3.28	127.19	33.0193	-112.0274	13124.1
322	-0.88	-0.88	-90.64	33.0193	-112.0272	13124.1
323	0	-1.11	-22.1	33.0193	-112.0271	13124.1
324	1.88	2.51	-52.55	33.0192	-112.0269	13124.1
325	-5.37	-0.43	-67.88	33.0192	-112.0268	13124.1
326	-9.25	-0.22	-29.8	33.0192	-112.0266	13124.1
327	-3.29	3.72	47.27	33.0191	-112.0264	13124.1
328	-4.75	1.08	86.36	33.0191	-112.0263	13124.1
329	-6.48	0.22	100.34	33.019	-112.0259	13379.6
330	-9.83	0.89	117.41	33.019	-112.0258	13379.6
331	-6.72	4.75	152.27	33.019	-112.0256	13379.6
332	-1.72	-0.43	-102.6	33.0189	-112.0255	13379.6
333	-13.29	-3.95	-69.41	33.0189	-112.0253	13379.6
334	-8.13	2.19	-1.38	33.0188	-112.0251	13379.6
335	-3.95	0	88.94	33.0188	-112.025	13379.6
336	-5.04	-1.31	128.61	33.0188	-112.0248	13379.6
337	-7.61	-2.53	135.28	33.0188	-112.0247	13379.6
338	-0.47	2.57	-112.45	33.0188	-112.0245	13379.6
339	-3.28	0	-3.5	33.0188	-112.0243	13379.6
340	0	1.25	31.6	33.0188	-112.0241	13379.6
341	-5.58	0.86	51.53	33.0187	-112.0239	13379.6
342	-6.48	1.08	65.07	33.0187	-112.0237	13379.6
343	-1.74	-1.74	96.89	33.0186	-112.0233	13510
344	-5.96	-0.46	86.24	33.0185	-112.0231	13510
345	-4.6	3.5	122.55	33.0185	-112.023	13510
346	-3.24	0.86	-163.22	33.0184	-112.0229	13510
347	-1.06	-2.77	110.3	33.0184	-112.0227	13510
348	-3.26	-2.83	12.54	33.0183	-112.0226	13510
349	-3.96	0	-56.72	33.0183	-112.0225	13510
350	-6.19	-1.55	-115.45	33.0183	-112.0224	13510
351	-3.34	0.22	171.35	33.0182	-112.0223	13510
352	-3.87	1.07	149.22	33.0182	-112.0221	13510
353	-4.82	-2.84	-174.55	33.0182	-112.022	13510
354	-3.31	-1.32	160.8	33.0182	-112.0219	13510
355	-4.62	0.22	101.16	33.0181	-112.0218	13510
356	-1.29	-0.22	57.76	33.0181	-112.0217	13510
357	-1.68	0.63	-27.93	33.0181	-112.0215	13510
358	-5.37	-0.43	45.14	33.018	-112.021	13510
359	-4.57	1.52	-24.89	33.0179	-112.0209	13510
360	-3.89	-2.37	-92.78	33.0179	-112.0208	13510
361	-3.09	-1.33	119.74	33.0179	-112.0207	13510
362	0.23	-0.91	29.33	33.0178	-112.0205	13510
363	-2.83	1.88	-53.48	33.0178	-112.0204	13510
364	1.59	0.45	-153.52	33.0178	-112.0203	13510
365	-4.86	2.08	98.5	33.0177	-112.0202	13510
366	-3.34	2.67	43.58	33.0177	-112.0201	13510
367	-6.53	3.78	17.49	33.0177	-112.0200	13510
368	-1.43	-0.2	12.99	33.0177	-112.0199	13510
369	-2.7	1.66	-47.66	33.0177	-112.0198	13510
370	-3.83	0.64	-158.32	33.0177	-112.0197	13510
371	-6.16	2.25	121.42	33.0177	-112.0194	13510
372	-3.83	-0.43	127.41	33.0177	-112.0193	13510
373	-0.22	1.74	112.03	33.0177	-112.0191	13510
374	-3.2	1.92	95.14	33.0177	-112.019	13510
375	-2.92	-1.88	141.13	33.0177	-112.0189	13510
376	-4.23	-4.44	130.72	33.0177	-112.0188	13510
377	-5.67	-6.31	72.8	33.0177	-112.0187	13510
378	-2.85	-6.55	41.88	33.0177	-112.0185	13510
379	-5.31	-2.54	0	33.0176	-112.0183	13510
380	-5.62	1.35	37.12	33.0176	-112.0182	13510
381	-4.23	0.44	40.04	33.0176	-112.018	13510
382	-4.16	2.19	17.98	33.0175	-112.0178	13510
383	-3.93	1.53	-7.27	33.0175	-112.0176	13510
384	-0.45	1.59	-67.03	33.0174	-112.0175	13510
385	-7.04	1.59	-172.26	33.0174	-112.0173	13510
386	-7.42	-0.65	153.54	33.0174	-112.0169	13904.4
387	-0.23	0.45	107.09	33.0174	-112.0168	13904.4
388	-4.57	1.83	86.51	33.0174	-112.0166	13904.4
389	-3.65	-2.28	111.7	33.0174	-112.0164	13904.4
390	-1.11	-1.33	84.73	33.0174	-112.0162	13904.4
391	-6.68	0.44	69.06	33.0174	-112.0161	13904.4
392	-4.54	-2.49	104.12	33.0174	-112.016	13904.4
393	-4.74	-0.68	133.31	33.0174	-112.0159	13904.4
394	-1.11	0.67	131.48	33.0174	-112.0157	13904.4
395	-0.82	-0.82	-158.13	33.0174	-112.0156	13904.4
396	-2.1	-0.42	-25.92	33.0174	-112.0155	13904.4
397	-3	0.43	41.82	33.0174	-112.0154	13904.4
398	-3.06	0.22	88.41	33.0173	-112.0153	13904.4
399	-3.6	-2.03	109.24	33.0173	-112.0152	13904.4
400	-3.78	0.22	124.25	33.0173	-112.0151	13904.4
401	-1.79	0	138.22	33.0172	-112.0148	13904.4
402	-4.74	2.71	137.17	33.0172	-112.0147	13904.4
403	-3.06	-0.44	-162.6	33.0172	-112.0146	13904.4
404	-5.19	-2.03	-51.63	33.0172	-112.0145	13904.4
405	-2.05	0.23	17.58	33.0171	-112.0144	13904.4
406	-2.95	-0.91	67.21	33.0171	-112.0143	13904.4
407	-2.77	1.7	83.83	33.0171	-112.0143	13904.4
408	-4.53	1.72	0	33.0171	-112.0142	13904.4
409	-7.02	2.19	132.47	33.017	-112.0141	13904.4
410	-1.97	0	-132.8	33.017	-112.014	13904.4
411	-4.1	-1.08	-68.25	33.017	-112.0139	13904.4
412	-4.15	1.31	-86.13	33.0169	-112.0138	13904.4
413	-5.27	0	-85.28	33.0169	-112.0136	13904.4
414	-5.19	-2.38	-64.29	33.0168	-112.0135	13904.4
415	-3.29	-0.22	-42.25	33.0168	-112.0134	13904.4
416	-2.41	-1.53	-4.92	33.0167	-112.0131	13904.4
417	-3.08	-0.22	12.87	33.0167	-112.013	13904.4
418	-2.84	0.66	3.65	33.0166	-112.0128	13904.4
419	-4.37	0.65	-37.78	33.0166	-112.0127	13904.4
420	-5.78	-1.77	-76.29	33.0166	-112.0125	13904.4
421	-4.73	-1.72	-97.31	33.0165	-112.0123	13904.4
422	-3.14	0.67	-84.2	33.0165	-112.0122	13904.4
423	-2.44	0	-66.22	33.0165	-112.0121	13904.4
424	-3.19	-1.14	-141.13	33.0165	-112.0119	13904.4
425	-4.78	-1.82	113.95	33.0165	-112.0118	13904.4
426	-3.71	-1.09	87.52	33.0165	-112.0117	13904.4
427	-3.04	1.3	92.29	33.0165	-112.0116	13904.4
428	-3.89	0	110.99	33.0165	-112.0115	13904.4
429	-5.69	-1.97	117.04	33.0165	-112.0114	13904.4
430	-3.84	0	137.28	33.0165	-112.0113	13904.4
431	-2.45	0.22	170.21	33.0164	-112.0112	13904.4
432	-4.24	0.22	-151.45	33.0164	-112.011	13904.4
433	-3.62	-2.03	-22.3	33.0164	-112.0109	13904.4
434	-2.66	-0.22	71.44	33.0163	-112.0108	13904.4
435	-2.65	0	-143.43	33.0163	-112.0107	13904.4
436	-2.15	1.72	-63.29	33.0162	-112.0106	13904.4
437	-4	-1.26	-22.9	33.0162	-112.0105	13904.4
438	-5.86	-1.67	-12.97	33.0161	-112.0105	13904.4
439	-4.19	-0.84	-10.49	33.0161	-112.0104	13904.4
440	-4.24	-1.27	17.79	33.0161	-112.0103	13904.4
441	-2.17	2.38	67.01	33.016	-112.0101	13904.4
442	-1.09	-1.95	129	33.016	-112.0100	13904.4
443	-7.61	0.43	104.62	33.016	-112.0099	13904.4
444	-8.5	-1.09	78.15	33.016	-112.0098	13904.4
445	-7.95	-0.64	102.69	33.0161	-112.0097	13904.4
446	-1.6	-1.37	-162.91	33.0161	-112.0092	13904.4
447	-7.3	-2.35	-107.75	33.0161	-112.009	13904.4
448	-7.15	2.76	-74.9	33.0161	-112.0089	13904.4
449	-0.22	2.68	-67.58	33.0161	-112.0087	13904.4
450	-1.95	1.51	179.79	33.0161	-112.0085	13904.4
451	-6.66	0.89	110.17	33.0161	-112.0083	13904.4
452	-3.92	-1.09	87.05	33.0161	-112.0081	13904.4
453	-6.96	1.3	42.72	33.0161	-112.0079	13904.4
454	-6.57	1.27	10.52	33.0161	-112.0078	13904.4
455	-3.38	3.37	-43.66	33.016	-112.0077	13904.4
456	-4.5	0.43	-149.76	33.016	-112.0075	13904.4
457	-4.35	-0.87	105.02	33.016	-112.0074	13904.4
458	0	-2.35	11.5	33.016	-112.0073	13904.4
459	-2.73	-0.91	30.19	33.016	-112.0068	13904.4
460	-3.97	0	-64.25	33.016	-112.0066	13904.4
461	-4.28	-2.52	172.5	33.016	-112.0064	13904.4
462	-1.23	0	89.73	33.016	-112.0062	13904.4
463	-0.47	-0.93	16.43	33.0161	-112.006	13904.4
464	-1.15	4.36	-55.35	33.0161	-112.0058	13904.4
465	-2.42	1.76	-58.79	33.0161	-112.0056	13904.4
466	-0.62	-2.48	-145.04	33.0161	-112.0054	13904.4
467	-4.48	-0.43	87.06	33.0161	-112.0052	13904.4
468	-2.36	1.93	37.82	33.0161	-112.005	13904.4
469	-5.8	1.78	2.18	33.0162	-112.0048	13904.4
470	-3.34	-0.83	-82.37	33.0162	-112.0046	13904.4
471	-4.22	-1.05	156.66	33.0162	-112.0044	13904.4
472	-3.59	-1.12	117.47	33.0162	-112.0041	13904.4
473	-1.89	-4.25	47.48	33.0162	-112.004	13904.4
474	-2.62	-2.15	-70.69	33.0162	-112.0038	13904.4
475	-1.35	-5.84	-140.94	33.0162	-112.0036	13904.4
476	-0.87	-1.31	123.17	33.0162	-112.0035	13904.4
477	-5.32	-4.9	67.68	33.0162	-112.0033	13904.4
478	-2.25	0.82	62.71	33.0162	-112.0032	13904.4
479	-3.81	0.42	69.96	33.0162	-112.0031	13904.4
480	1.51	-2.58	18.29	33.0162	-112.0029	13904.4
481	-4.37	0	-66.87	33.0162	-112.0028	13904.4
482	-4.74	-4.73	-57.94	33.0162	-112.0026	13904.4
483	-3.38	-2.03	-102.81	33.0162	-112.0024	13904.4
484	-5.56	0.89	174.63	33.0161	-112.0022	13904.4
485	-3.56	-2.67	-155.14	33.0161	-112.0021	13904.4
486	-1.39	-3	173.13	33.016	-112.0019	13904.4
487	-6.71	-6.44	93.17	33.016	-112.0016	14684
488	-1.91	-2.12	42.98	33.0159	-112.0014	14684
489	-7.07	0	36.24	33.0159	-112.0012	14684
490	-5.84	0	52.62	33.0158	-112.001	14684
491	-2.41	-1.97	14.29	33.0158	-112.0008	14684
492	-9.04	-1.71	-14.42	33.0158	-112.0006	14684
493	-6.81	-0.85	32.24	33.0157	-112.0005	14684
494	-3.25	-2.81	58.38	33.0157	-112.0003	14684
495	-2.42	0	42.73	33.0157	-112.0002	14684
496	-0.63	-2.71	70.16	33.0156	-112.0000	14684
497	-7.9	0.61	143.8	33.0156	-111.9999	14684
498	-2.38	-3.45	-46.07	33.0156	-111.9997	14684
499	-2.54	3.23	54.46	33.0156	-111.9995	14684
500	-1.28	-1.06	171.54	33.0155	-111.9993	14684
501	-3.89	1.08	-160.18	33.0155	-111.999	14684
502	-6.44	0	-108.27	33.0155	-111.9989	14684
503	0.69	-2.29	14.59	33.0154	-111.9987	14684
504	-3.8	-3.37	72.06	33.0154	-111.9985	14684
505	-3.41	1.4	96.55	33.0154	-111.9983	14684
506	0.22	-3.73	-147.21	33.0153	-111.9981	14684
507	-6.53	-1.21	-57.28	33.0153	-111.9979	14684
508	-1.78	0.89	41.12	33.0153	-111.9977	14684
509	-1.74	1.73	-129.31	33.0153	-111.9975	14684
510	2.84	3.05	-9.59	33.0153	-111.9973	14684
511	-2.1	2.52	0.66	33.0153	-111.9972	14684
512	-4.84	-0.97	21.58	33.0152	-111.997	14684
513	-7.07	-2.7	32.88	33.0152	-111.9968	14684
514	1.77	-1.11	74.98	33.0152	-111.9966	14684
515	-0.85	-2.96	-164.11	33.0152	-111.9963	14684
516	0.39	0.39	-62.65	33.0152	-111.9962	14684
517	-3.32	1.24	-3.73	33.0152	-111.9959	14684
518	-0.44	2.42	65.26	33.0152	-111.9958	14684
519	-6.48	-3.12	113.3	33.0152	-111.9956	14684
520	-4.41	-0.21	-168.34	33.0152	-111.9954	14684
521	-5.15	-0.45	12.26	33.0152	-111.9953	14684
522	2.46	0.67	154.39	33.0153	-111.9951	14684
523	-0.21	0.21	-144.3	33.0153	-111.9949	14684
524	-3.38	-2.74	-125.4	33.0153	-111.9948	14684
525	-4.59	-0.23	-99.76	33.0152	-111.9947	14684
526	-2.49	4.29	-50.87	33.0152	-111.9946	14684
527	-2.35	2.14	-4.92	33.0152	-111.9944	14684
528	-7.05	-1.06	1.87	33.0151	-111.9943	14684
529	-7.07	-2.27	18.64	33.0151	-111.9941	14684
530	-5.49	2.85	76.57	33.0151	-111.9939	14684
531	-0.21	1.03	176.08	33.015	-111.9937	14684
532	-4.74	2.03	-109.14	33.015	-111.9936	14684
533	2.48	2.03	10.15	33.0149	-111.9933	14684
534	-1.87	0.83	51.85	33.0149	-111.9931	14684
535	-3.38	-0.2	-4.5	33.0149	-111.9929	14684
536	-3.4	0.43	-40.79	33.0149	-111.9926	14684
537	-6.9	0.89	28.99	33.0149	-111.9924	14684
538	-0.42	2.97	129.55	33.0148	-111.9922	14684
539	-6.94	3.46	-129.33	33.0148	-111.992	14684
540	-0.69	2.98	-17.05	33.0148	-111.9919	14684
541	-3.42	0.68	33.23	33.0148	-111.9917	14684
542	-2.54	1.06	40.98	33.0148	-111.9915	14684
543	-3.54	0	58.52	33.0149	-111.9913	14684
544	0.23	1.13	121.82	33.0149	-111.9911	14684
545	-1.33	-0.67	-171.3	33.0149	-111.9909	14684
546	-6.49	-2.45	156.93	33.015	-111.9908	14684
547	-1.65	-2.59	113.13	33.015	-111.9906	14684
548	-2.82	-0.23	81.9	33.0151	-111.9903	15098.8
549	-2.14	-2.14	91.02	33.0151	-111.9902	15098.8
550	-3.19	-0.43	97.66	33.0152	-111.9900	15098.8
551	0	0.22	142.26	33.0152	-111.9898	15098.8
552	-1.33	0.44	-137.76	33.0153	-111.9896	15098.8
553	-3.7	-1.3	178.23	33.0153	-111.9894	15098.8
554	-1.33	-1.11	83.82	33.0154	-111.9893	15098.8
555	-1.77	2.43	6.55	33.0154	-111.9891	15098.8
556	-3.73	3.31	-35.94	33.0155	-111.9889	15098.8
557	-4.11	-0.82	-78.1	33.0155	-111.9887	15098.8
558	-1.91	-2.54	-163.71	33.0155	-111.9885	15098.8
559	-2.19	-0.66	155.44	33.0156	-111.9883	15098.8
560	-2.37	2.37	127.78	33.0156	-111.9881	15098.8
561	-2.58	-1.51	60.12	33.0156	-111.9879	15098.8
562	-1.83	2.51	-6.12	33.0156	-111.9878	15098.8
563	-2.03	1.8	-24.21	33.0157	-111.9874	15208.1
564	-4.45	-0.85	-59.18	33.0157	-111.9872	15208.1
565	-6.22	-1.07	-144.67	33.0157	-111.987	15208.1
566	-3.56	-0.22	-149.19	33.0158	-111.9868	15208.1
567	-1.09	0	168.24	33.0158	-111.9865	15208.1
568	-1.92	-1.92	89.4	33.0158	-111.9863	15208.1
569	-1.52	1.31	15.9	33.0158	-111.9862	15208.1
570	-4.21	0.89	-13.35	33.0159	-111.986	15208.1
571	-3.83	0	1.52	33.0159	-111.9857	15208.1
572	-2.41	0.88	-42.65	33.0159	-111.9855	15208.1
573	-2.68	0	175.36	33.0159	-111.9853	15208.1
574	-0.89	1.11	119.27	33.0159	-111.9851	15208.1
575	-4.86	-0.88	110.17	33.0159	-111.9849	15208.1
576	-6.24	-3.11	120.04	33.0158	-111.9847	15208.1
577	-1.57	-2.24	78	33.0157	-111.9843	15331
578	-1.75	0.22	2.69	33.0157	-111.9841	15331
579	-4.28	2.47	0	33.0157	-111.9839	15331
580	-0.66	1.55	106.86	33.0156	-111.9837	15331
581	-8.48	-0.44	30.51	33.0156	-111.9835	15331
582	-3.77	-0.89	-21.6	33.0156	-111.9833	15331
583	-4.76	-0.87	-102.31	33.0155	-111.9832	15331
584	-2.24	0	167.95	33.0155	-111.983	15331
585	-5.71	-2.28	97.5	33.0155	-111.9828	15331
586	-3.65	-1.37	72.62	33.0155	-111.9827	15331
587	-6.09	2.92	68.76	33.0155	-111.9825	15331
588	-3.3	2.64	84.56	33.0155	-111.9824	15331
589	0.21	-0.63	41.8	33.0155	-111.9822	15331
590	-3.98	0	-50.24	33.0155	-111.982	15331
591	-3.28	0	176.33	33.0155	-111.9819	15331
592	-5.11	-2.66	97.79	33.0156	-111.9815	15449.6
593	-2.25	0	56.52	33.0156	-111.9813	15449.6
594	-3.74	3.03	75.85	33.0156	-111.9811	15449.6
595	-1.39	-0.23	102.93	33.0156	-111.9808	15449.6
596	0	-0.45	47.85	33.0156	-111.9806	15449.6
597	-5.8	-1.34	2.67	33.0156	-111.9804	15449.6
598	-3.19	-0.91	-6.03	33.0157	-111.9802	15449.6
599	-3.63	0.23	-43.77	33.0157	-111.9800	15449.6
600	-4.78	-0.43	-44.43	33.0157	-111.9798	15449.6
601	-2.82	-0.43	-11.14	33.0158	-111.9796	15449.6
602	-1.78	-0.67	13.98	33.0158	-111.9794	15449.6
603	-2.94	1.81	18.77	33.0158	-111.9792	15449.6
604	-6.99	0.22	34.38	33.0158	-111.9789	15449.6
605	-3.71	-2.4	25.57	33.0158	-111.9787	15449.6
606	-2.73	0	16.93	33.0159	-111.9782	15449.6
607	-4.4	-0.46	62.51	33.0159	-111.978	15449.6
608	-3.41	1.59	43.05	33.0159	-111.9779	15449.6
609	-5.31	3.09	29.24	33.0159	-111.9777	15449.6
610	-5.99	-0.85	50.79	33.0159	-111.9775	15449.6
611	-2.91	-2.91	24.7	33.0159	-111.9773	15449.6
612	-5.82	0	-8.33	33.0159	-111.9771	15449.6
613	-3.71	-2.4	46.95	33.016	-111.977	15449.6
614	-4.99	0	125.94	33.016	-111.9768	15449.6
615	-5.64	-2.25	165.84	33.016	-111.9766	15449.6
616	-5.49	-2.63	-161.26	33.016	-111.9764	15449.6
617	-2.83	-0.44	-123.25	33.016	-111.9762	15449.6
618	-3.26	-0.22	-170.72	33.016	-111.976	15449.6
619	-4.2	-0.88	136.45	33.0161	-111.9757	15449.6
620	-2.98	1.14	157.25	33.0161	-111.9753	15449.6
621	-4.65	1.62	-129.85	33.0161	-111.9751	15449.6
622	-8.68	0.43	-96.28	33.0161	-111.9749	15449.6
623	-5.01	1.46	-33.4	33.0162	-111.9747	15449.6
624	-4.92	-0.82	21.85	33.0162	-111.9745	15449.6
625	-4.45	0	35.46	33.0162	-111.9742	15449.6
626	-5.36	0.67	54.21	33.0162	-111.974	15449.6
627	-4.74	1.35	98.87	33.0162	-111.9738	15449.6
628	-3.43	0.23	174.01	33.0162	-111.9736	15449.6
629	-6.72	-2.08	-136.74	33.0162	-111.9734	15449.6
630	-4.59	0.23	-100.46	33.0163	-111.9732	15449.6
631	-2.23	-2.45	-39.06	33.0163	-111.9731	15449.6
632	-5.58	0	-18.28	33.0163	-111.9729	15449.6
633	-3.67	0	2.92	33.0163	-111.9728	15449.6
634	-4.09	-1.07	-19.92	33.0163	-111.9723	15449.6
635	-7.13	0.89	-63.01	33.0163	-111.9721	15449.6
636	-2.26	0	-163.18	33.0163	-111.9719	15449.6
637	-6.78	-0.93	80.51	33.0163	-111.9718	15449.6
638	-3.13	-0.72	40.23	33.0163	-111.9716	15449.6
639	-6.22	1.33	39.13	33.0164	-111.9714	15449.6
640	-7.57	1.26	53.26	33.0164	-111.9712	15449.6
641	-2.03	-0.2	13.57	33.0164	-111.9711	15449.6
642	-5.45	0.44	-64.53	33.0164	-111.9709	15449.6
643	-2.45	-0.22	-166.28	33.0164	-111.9707	15449.6
644	-3.43	-2.74	58.5	33.0164	-111.9706	15449.6
645	-4.53	1.19	-47.91	33.0164	-111.9704	15449.6
646	-2.1	-1.17	-159.7	33.0165	-111.9702	15449.6
647	-5.21	0.91	98.36	33.0165	-111.9700	15449.6
648	-1.89	-2.93	36.17	33.0165	-111.9696	15736.9
649	-3.9	-0.41	-61.46	33.0165	-111.9694	15736.9
650	-2.99	0	-178.24	33.0165	-111.9692	15736.9
651	-2.66	-0.89	76.15	33.0164	-111.969	15736.9
652	-5.78	0.69	-2.41	33.0164	-111.9688	15736.9
653	-5.71	-1.82	-31.73	33.0165	-111.9687	15736.9
654	-2.49	-1.36	-64.93	33.0165	-111.9685	15736.9
655	-3.8	0.22	-96.42	33.0165	-111.9683	15736.9
656	-5.23	0.44	-14.87	33.0165	-111.9681	15736.9
657	-4.98	-0.65	54.29	33.0166	-111.968	15736.9
658	-2.99	-2.99	114.3	33.0166	-111.9678	15736.9
659	-4.18	-1.98	131.06	33.0166	-111.9676	15736.9
660	-4.23	2.22	117.32	33.0166	-111.9674	15736.9
661	-6.12	2.4	126.56	33.0166	-111.9673	15736.9
662	-5.17	0	164.18	33.0167	-111.9671	15736.9
663	-3.42	-2.99	-118.89	33.0167	-111.9667	15804.4
664	-2.39	-1.95	-77.24	33.0166	-111.9665	15804.4
665	-4.21	0.66	-24.84	33.0166	-111.9663	15804.4
666	1.34	0.45	53.85	33.0166	-111.9661	15804.4
667	-3.31	0.22	86.52	33.0166	-111.9659	15804.4
668	-8.49	0.69	106.64	33.0167	-111.9657	15804.4
669	-3.45	1.15	-164.12	33.0167	-111.9656	15804.4
670	-2.33	-1.27	-149.83	33.0167	-111.9654	15804.4
671	-4	1.68	155.74	33.0167	-111.9652	15804.4
672	-5.29	-2.2	-143.71	33.0167	-111.9651	15804.4
673	-5.78	-3.92	-117.89	33.0167	-111.9649	15804.4
674	-4.64	-1.76	-155.77	33.0167	-111.9647	15804.4
675	-6.6	0	178.48	33.0167	-111.9646	15804.4
676	-3.26	-1.3	113.93	33.0167	-111.9644	15804.4
677	-2.55	-4.85	-0.91	33.0168	-111.964	15804.4
678	-5.08	3.86	139.77	33.0168	-111.9638	15804.4
679	-2.6	0.47	168.64	33.0169	-111.9636	15804.4
680	2.12	-5.5	160.86	33.0169	-111.9635	15804.4
681	-2.5	-0.83	32.62	33.0169	-111.9633	15804.4
682	-3.39	2.59	-62.65	33.0169	-111.9631	15804.4
683	-5.87	-1.41	-86.56	33.017	-111.9629	15804.4
684	-0.41	-4.11	158.73	33.017	-111.9627	15804.4
685	-7.47	0	102.48	33.017	-111.9626	15804.4
686	-4.97	0	125.03	33.017	-111.9624	15804.4
687	0.23	0	83.85	33.017	-111.9622	15804.4
688	-1.47	-4.4	-3.82	33.017	-111.962	15804.4
689	-1.84	1.61	-93.66	33.017	-111.9618	15804.4
690	-6.91	-0.86	-149.73	33.017	-111.9616	15804.4
691	-6.48	-2.29	156.22	33.017	-111.9615	15804.4
692	-6.1	1.3	122.79	33.017	-111.9611	15955.1
693	-3.03	-1.16	148.88	33.017	-111.9609	15955.1
694	0.89	0.22	105.58	33.017	-111.9607	15955.1
695	-6.99	-1.48	43.8	33.0169	-111.9606	15955.1
696	-4.4	-0.4	32.43	33.0169	-111.9604	15955.1
697	-4.26	1.62	34.35	33.017	-111.9603	15955.1
698	-1.66	-1.04	8.13	33.017	-111.9601	15955.1
699	-2.68	2.06	-81.99	33.017	-111.96	15955.1
700	-4.07	-2.24	-157.13	33.017	-111.9598	15955.1
701	0.85	-1.91	171.79	33.0169	-111.9596	15955.1
702	0	0	177.95	33.0169	-111.9594	15955.1
703	-3.89	-1.94	-103.29	33.0169	-111.9592	15955.1
704	-8.85	-2.55	-82.93	33.0169	-111.9591	15955.1
705	-3.61	2.16	-53.89	33.0169	-111.9589	15955.1
706	1.82	1.36	-7.02	33.0169	-111.9587	15955.1
707	-4.52	-0.23	-81.87	33.0169	-111.9583	16071.8
708	-5.05	-0.23	105.22	33.0168	-111.958	16071.8
709	-7.4	-0.98	78.15	33.0168	-111.9578	16071.8
710	-3.59	0.96	53.03	33.0167	-111.9576	16071.8
711	-5.13	0.67	15.3	33.0167	-111.9573	16071.8
712	0	-1.05	5.78	33.0167	-111.9571	16071.8
713	-2.72	1.25	-59.93	33.0166	-111.9569	16071.8
714	-2.73	-2.1	133.98	33.0166	-111.9567	16071.8
715	-5.62	-3.24	50.7	33.0166	-111.9565	16071.8
716	-2.7	-1.58	17.7	33.0165	-111.9563	16071.8
717	-6.01	1.38	17.23	33.0165	-111.956	16071.8
718	-6.67	0.69	32.3	33.0164	-111.9558	16071.8
719	0	-2.47	1.13	33.0164	-111.9557	16071.8
720	-4.95	-0.45	-31.81	33.0163	-111.9552	16071.8
721	-3.13	-0.89	-34.44	33.0162	-111.955	16071.8
722	-5.17	-0.67	-22.34	33.0162	-111.9548	16071.8
723	-6.26	0.23	32.75	33.0161	-111.9546	16071.8
724	-4.27	0	124.96	33.0161	-111.9545	16071.8
725	0.67	3.78	-43.2	33.0161	-111.9543	16071.8
726	1.46	2.92	60.44	33.0161	-111.9541	16071.8
727	-6.9	1.42	56.23	33.016	-111.9539	16071.8
728	-9.32	-1.69	80.84	33.016	-111.9536	16071.8
729	-1.33	-0.66	-107.1	33.016	-111.9534	16071.8
730	-4.26	3.58	45.81	33.016	-111.9532	16071.8
731	-1.02	1.84	175.56	33.016	-111.953	16071.8
732	-6.67	2.79	-56.23	33.016	-111.9528	16071.8
733	-1.16	4.42	43.22	33.0159	-111.9527	16071.8
734	-3.46	-2.3	151.25	33.0159	-111.9523	16250.8
735	0.21	4.35	-66.69	33.0159	-111.9521	16250.8
736	-2.99	-0.43	31.44	33.0159	-111.9519	16250.8
737	-3.19	4.55	84.52	33.0158	-111.9516	16250.8
738	0	1.58	141.76	33.0158	-111.9514	16250.8
739	-2.91	-3.13	138.04	33.0158	-111.9512	16250.8
740	-0.44	0.66	137.39	33.0157	-111.9511	16250.8
741	-7.75	1.21	177.91	33.0157	-111.9509	16250.8
742	6.76	0.21	0.06	33.0157	-111.9507	16250.8
743	-1.6	1	45.39	33.0156	-111.9505	16250.8
744	-8.64	-2.6	20.21	33.0156	-111.9503	16250.8
745	0.22	0	122.4	33.0156	-111.9501	16250.8
746	-5.39	2.8	-33.93	33.0155	-111.9498	16250.8
747	-5.93	3.88	45.82	33.0155	-111.9496	16250.8
748	-6.83	-1.07	128.3	33.0154	-111.9495	16250.8
749	-2.79	-5.8	123.93	33.0154	-111.9491	16339.4
750	-2.98	0.85	-14.08	33.0154	-111.9489	16339.4
751	-0.77	2.71	-160.13	33.0154	-111.9487	16339.4
752	-4.45	2.11	129.67	33.0154	-111.9485	16339.4
753	0.23	1.15	65	33.0153	-111.9482	16339.4
754	-8.89	6.24	46.89	33.0153	-111.948	16339.4
755	-4.18	-3.38	133.6	33.0153	-111.9478	16339.4
756	-8.01	-3.23	174.89	33.0152	-111.9476	16339.4
757	-4.24	-1.41	114.13	33.0152	-111.9475	16339.4
758	-0.83	-4.13	43.5	33.0152	-111.9473	16339.4
759	-0.78	1.76	-45.33	33.0151	-111.9471	16339.4
760	-2.81	-4.53	-111.47	33.0151	-111.9469	16339.4
761	-0.23	4.12	80.97	33.015	-111.9467	16339.4
762	-4.87	2.11	21.5	33.015	-111.9464	16339.4
763	-2.51	0.58	45.49	33.0149	-111.9463	16339.4
764	-1.52	-4.56	13.16	33.0149	-111.946	16425.8
765	-3.52	3.28	-21.94	33.0148	-111.9458	16425.8
766	4.78	2.78	3.74	33.0148	-111.9456	16425.8
767	-8.27	-3.33	-16.81	33.0147	-111.9454	16425.8
768	-2.05	-5.46	-138.24	33.0146	-111.9452	16425.8
769	-1.76	-4.6	132.37	33.0145	-111.945	16425.8
770	-4	2.4	68.21	33.0145	-111.9449	16425.8
771	-6.74	-0.77	31.31	33.0145	-111.9447	16425.8
772	-0.67	2.45	-7.96	33.0144	-111.9446	16425.8
773	-2.58	6.54	-52.96	33.0144	-111.9445	16425.8
774	-2.64	6.67	162.04	33.0143	-111.9443	16425.8
775	-3.29	0.39	80.38	33.0143	-111.9441	16425.8
776	-1.52	1.09	50.43	33.0142	-111.944	16425.8
777	-4.64	8.32	41.3	33.0141	-111.9438	16425.8
778	-4.37	5.3	49.34	33.0139	-111.9435	16518.9
779	1.8	0	27.38	33.0139	-111.9434	16518.9
780	-2.09	0.93	-19.85	33.0139	-111.9433	16518.9
781	-7.28	1.92	103.68	33.0139	-111.9431	16518.9
782	-8.1	1.28	77.25	33.0138	-111.9429	16518.9
783	-1.95	1.75	49.41	33.0137	-111.9428	16518.9
784	-4.93	1.79	16.25	33.0136	-111.9426	16518.9
785	-4.66	3.24	10.65	33.0135	-111.9425	16518.9
786	-6.44	-0.57	75.34	33.0134	-111.9424	16518.9
787	-5.16	0.86	101.2	33.0134	-111.9423	16518.9
788	-2.72	-2.94	96.86	33.0134	-111.9422	16518.9
789	-3.17	-5.26	80.67	33.0134	-111.942	16518.9
790	-5.04	0.63	93.07	33.0133	-111.9418	16518.9
791	1.31	-0.87	96.42	33.0133	-111.9417	16518.9
792	0.47	3.07	14.16	33.0132	-111.9415	16518.9
793	-7.15	-0.59	-11.31	33.0132	-111.9409	16518.9
794	-2.14	0.43	21.51	33.0132	-111.9408	16518.9
795	2.05	-7.93	4.75	33.0132	-111.9406	16518.9
796	2.25	-13.45	-23.33	33.0132	-111.9404	16518.9
797	-2.88	-1.65	-120.05	33.0132	-111.9402	16518.9
798	-3.04	-3.5	157.04	33.0131	-111.9401	16518.9
799	1	-6.45	72.43	33.013	-111.9399	16518.9
800	5.06	-1.1	34.43	33.013	-111.9398	16518.9
801	-0.22	-3.14	-27.82	33.0129	-111.9396	16518.9
802	6.79	0.9	166.85	33.0129	-111.9395	16518.9
803	0.85	2.34	103.3	33.0129	-111.9393	16518.9
804	-6.12	-1.97	117.81	33.0128	-111.9392	16518.9
805	-5.8	0.43	77.21	33.0128	-111.9391	16518.9
806	-0.49	0.98	35.61	33.0127	-111.9391	16518.9
807	0.95	4.72	12.49	33.0127	-111.9389	16814.1
808	0	-8.06	-25.49	33.0127	-111.9388	16814.1
809	1.38	4.59	124.47	33.0126	-111.9386	16814.1
810	-0.83	0	46.6	33.0126	-111.9385	16814.1
811	-4.02	0.76	-33.52	33.0125	-111.9384	16814.1
812	3.09	-0.21	-146.98	33.0125	-111.9383	16814.1
813	-4.31	-4.98	125.06	33.0124	-111.9382	16814.1
814	6.08	0.22	25.08	33.0123	-111.9381	16814.1
815	2.21	-2.21	-121.75	33.0123	-111.938	16814.1
816	2.1	0.7	141.85	33.0123	-111.9378	16814.1
817	0	-0.91	127.74	33.0123	-111.9377	16814.1
818	-4.2	-1	127.1	33.0123	-111.9376	16814.1
819	1.02	-0.81	-176.21	33.0122	-111.9375	16814.1
820	-7.18	0.9	-100.61	33.0122	-111.9375	16814.1
821	4.8	1.6	8.78	33.0121	-111.9374	16814.1
822	-5.88	-1.09	70.64	33.0121	-111.9372	16814.1
823	-1.76	0.44	106.64	33.0121	-111.937	16814.1
824	-2.06	-3.43	157.23	33.0121	-111.9369	16814.1
825	0	-2.33	-119.76	33.0121	-111.9368	16814.1
826	-0.78	-1.37	-108.6	33.0121	-111.9367	16814.1
827	-8.16	-3.05	-170	33.012	-111.9367	16814.1
828	-3.8	-3.35	133.26	33.012	-111.9366	16814.1
829	-6.7	0.23	148.05	33.012	-111.9365	16814.1
830	-4.02	1.56	-82.59	33.0119	-111.9364	16814.1
831	-6.79	1.81	-4.14	33.0119	-111.9363	16814.1
832	-7.82	0.45	37.04	33.0119	-111.9362	16814.1
833	3.4	1.91	169.63	33.0119	-111.9361	16814.1
834	-2.47	0.82	-31.31	33.0119	-111.936	16814.1
835	-2.24	0	33.97	33.012	-111.9359	16814.1
836	-2	-2	102.07	33.0119	-111.9358	16975.5
837	-2.12	-5.29	105.8	33.0119	-111.9357	16975.5
838	-2.31	-0.84	46.4	33.0119	-111.9355	16975.5
839	-6.41	-1.54	13.6	33.0119	-111.9354	16975.5
840	-7.56	0.71	9.6	33.0119	-111.9353	16975.5
841	-5.15	0.9	29.55	33.0119	-111.9352	16975.5
842	-7.28	-1.45	35.33	33.0118	-111.9351	16975.5
843	-0.43	-0.22	19.03	33.0118	-111.935	16975.5
844	0.46	-3.01	46.65	33.0118	-111.935	16975.5
845	-3.32	0	44.13	33.0118	-111.9349	16975.5
846	-6.83	0.47	30.96	33.0117	-111.9348	16975.5
847	-9.06	1.76	55.36	33.0117	-111.9347	16975.5
848	-5.12	2.77	82.24	33.0117	-111.9346	16975.5
849	-2.26	-0.21	57.11	33.0117	-111.9345	16975.5
850	-3.67	-0.41	23.17	33.0117	-111.9345	16975.5
851	-2.96	0.63	-9.22	33.0116	-111.9342	16975.5
852	-3.17	0.21	2.75	33.0116	-111.9342	16975.5
853	-3.28	-0.21	-22.49	33.0116	-111.934	16975.5
854	-5.23	-0.42	-138.2	33.0116	-111.9339	16975.5
855	-3.02	-0.43	157.46	33.0116	-111.9338	16975.5
856	-2.22	1.77	137.55	33.0116	-111.9337	16975.5
857	-3.41	-0.68	130.16	33.0116	-111.9336	16975.5
858	-1.15	-3.9	107.6	33.0116	-111.9335	16975.5
859	-3.39	-1.21	109.42	33.0116	-111.9334	16975.5
860	-2.16	-0.96	164.88	33.0117	-111.9332	16975.5
861	-4.76	-2.85	162.2	33.0117	-111.9331	16975.5
862	-3.15	-1.21	132.06	33.0118	-111.933	16975.5
863	0.24	0.73	167.28	33.0118	-111.9328	16975.5
864	-4.26	-0.9	-175.27	33.0119	-111.9326	17158.8
865	-6.22	-3.21	119.18	33.012	-111.9324	17158.8
866	-4.62	1.26	134.81	33.012	-111.9323	17158.8
867	-3.52	-0.41	-56.43	33.012	-111.9322	17158.8
868	-0.87	1.74	19.8	33.012	-111.932	17158.8
869	-3.49	0.23	74.78	33.012	-111.9319	17158.8
870	0	-1.61	-146.35	33.0121	-111.9317	17158.8
871	-2.65	1.99	-63.61	33.0121	-111.9316	17158.8
872	-2.32	0	-36.64	33.0121	-111.9315	17158.8
873	-4.49	-1.63	17.71	33.0121	-111.9314	17158.8
874	-2.07	-1.03	75.62	33.0121	-111.9312	17158.8
875	-2.32	-1.68	82.76	33.0121	-111.9311	17158.8
876	-3.63	2.04	71.23	33.0121	-111.9309	17158.8
877	-1.41	0	107.71	33.0121	-111.9308	17158.8
878	-4.95	1.35	147.35	33.0121	-111.9305	17243.1
879	-0.82	-0.21	-75.5	33.0121	-111.9304	17243.1
880	-3.55	0	-19.11	33.0121	-111.9304	17243.1
881	-1.29	3.35	-1.88	33.0121	-111.9302	17243.1
882	-1.26	1.26	13.72	33.0121	-111.9301	17243.1
883	-9.93	3.51	41.26	33.0121	-111.93	17243.1
884	-1.05	-1.88	148.75	33.0121	-111.9299	17243.1
885	-5.27	4.44	-130.14	33.0121	-111.9298	17243.1
886	0.2	-4.43	-36.13	33.0122	-111.9297	17243.1
887	-1.03	-1.65	-94.75	33.0122	-111.9296	17243.1
888	-9.61	1.11	-121.12	33.0122	-111.9295	17243.1
889	-1.11	0.22	18.65	33.0122	-111.9293	17243.1
890	-1.3	0.65	97.7	33.0122	-111.9292	17243.1
891	-5.44	-3.13	136.49	33.0123	-111.9291	17243.1
892	-3.14	1.79	-177.26	33.0123	-111.9289	17243.1
893	0.91	-0.68	165.4	33.0124	-111.9286	17243.1
894	-5.8	-2	83	33.0124	-111.9285	17243.1
895	-4.23	-3.33	101.49	33.0125	-111.9284	17243.1
896	-1.87	-0.47	150.12	33.0125	-111.9283	17243.1
897	-1.21	-2.91	144.68	33.0125	-111.9282	17243.1
898	0.45	-0.23	54.54	33.0125	-111.9281	17243.1
899	3.54	-2.08	-108.97	33.0125	-111.9281	17243.1
900	-5.27	0	64.76	33.0126	-111.9279	17243.1
901	-0.8	1.6	-12.03	33.0126	-111.9278	17243.1
902	-3.46	0.2	-132.81	33.0126	-111.9277	17243.1
903	-1.25	0.83	124.52	33.0126	-111.9276	17243.1
904	1.1	0.88	46.04	33.0126	-111.9275	17243.1
905	-4.01	-2.89	-123.98	33.0126	-111.9274	17243.1
906	-5.36	-0.89	71.32	33.0126	-111.9272	17243.1
907	-4.78	0.65	6.69	33.0126	-111.9271	17243.1
908	-4.54	-0.45	-65.64	33.0127	-111.9268	17405.6
909	-0.23	1.61	154	33.0128	-111.9267	17405.6
910	-4.86	2.54	111.5	33.0128	-111.9266	17405.6
911	-3.18	-2.27	81.04	33.0128	-111.9265	17405.6
912	-3.43	0.69	11.23	33.0128	-111.9264	17405.6
913	-7.32	0.22	-24.87	33.0128	-111.9263	17405.6
914	-4.26	0.61	-5.35	33.0128	-111.9263	17405.6
915	-1.82	-0.81	42.79	33.0129	-111.9262	17405.6
916	-6.58	0	63.09	33.0129	-111.9261	17405.6
917	-7.32	2.28	87.7	33.013	-111.926	17405.6
918	-5.19	1.08	152.54	33.013	-111.9259	17405.6
919	-6.27	-0.22	-90.44	33.013	-111.9258	17405.6
920	-5.01	-0.23	-14.3	33.013	-111.9257	17405.6
921	0.9	-3.15	71.34	33.013	-111.9255	17405.6
922	-6.04	-1.12	158.51	33.013	-111.9254	17405.6
923	-1.31	0.22	-162.75	33.013	-111.9252	17405.6
924	0.68	0	-103.58	33.013	-111.925	17405.6
925	1.59	0.68	-37.38	33.0131	-111.9249	17405.6
926	-1.82	0	-0.12	33.0131	-111.9248	17405.6
927	-7.15	-1.3	-16.82	33.0132	-111.9246	17405.6
928	-6.18	1.28	-27.94	33.0132	-111.9245	17405.6
929	-4.14	0.83	-7.39	33.0132	-111.9244	17405.6
930	-1.64	-3.49	-80	33.0132	-111.9242	17405.6
931	-3.67	-3.23	160.31	33.0133	-111.9241	17405.6
932	-4.15	0	-64.36	33.0133	-111.924	17405.6
933	-2.58	-2.81	53.99	33.0134	-111.9239	17405.6
934	-3.06	-3.05	37.66	33.0134	-111.9237	17405.6
935	-2.84	0.61	-49.52	33.0134	-111.9236	17405.6
936	-5.07	-1.42	-75.84	33.0134	-111.9235	17405.6
937	-2.25	-2.66	-148.41	33.0134	-111.9232	17557.5
938	-1.02	-0.2	75.4	33.0134	-111.923	17557.5
939	-2.49	-0.62	14.14	33.0134	-111.9229	17557.5
940	-1.51	-0.65	-68.77	33.0134	-111.9228	17557.5
941	-6.32	0	149.6	33.0134	-111.9227	17557.5
942	-6.65	-1.5	125.57	33.0134	-111.9226	17557.5
943	-3.44	-0.43	-179.16	33.0134	-111.9225	17557.5
944	-4.18	-2.42	-89.46	33.0133	-111.9224	17557.5
945	-7.18	-2.6	-59.77	33.0133	-111.9223	17557.5
946	-5.49	-0.88	-3.59	33.0133	-111.9222	17557.5
947	-5.29	-1.32	52.42	33.0133	-111.9221	17557.5
948	-4.86	-1.85	41.64	33.0133	-111.922	17557.5
949	-5.9	-0.24	41.67	33.0133	-111.9219	17557.5
950	-1.56	-1.11	117.61	33.0133	-111.9219	17557.5
951	-6.75	-3.69	169.13	33.0133	-111.9218	17557.5
952	-5.73	-1.48	-168.66	33.0134	-111.9217	17557.5
953	-3.52	-2.64	-45.74	33.0134	-111.9215	17557.5
954	-5.78	-0.69	25.61	33.0135	-111.9213	17557.5
955	-4.13	-0.23	69.2	33.0135	-111.9212	17557.5
956	-2.12	-1.65	147.01	33.0136	-111.9211	17557.5
957	-5.47	-2.61	-134.85	33.0136	-111.921	17557.5
958	-4.91	2.01	-68.31	33.0137	-111.9209	17557.5
959	-1.49	-2.33	18.1	33.0137	-111.9207	17557.5
960	-5.31	-2.87	-22.24	33.0137	-111.9205	17557.5
961	-3.97	-2.64	178.48	33.0137	-111.9204	17557.5
962	-2.28	-0.25	174.97	33.0138	-111.9202	17557.5
963	-3.62	2.65	-158.7	33.0138	-111.9201	17557.5
964	-6.27	-3.79	174.79	33.0138	-111.9199	17557.5
965	-0.85	-2.34	79.44	33.0138	-111.9198	17557.5
966	-3.47	-3.06	10.27	33.0138	-111.9197	17557.5
967	-3.55	-0.83	-152.61	33.0138	-111.9195	17557.5
968	-4.37	-0.65	78.54	33.0139	-111.9193	17557.5
969	-6.39	-3.29	22.17	33.0139	-111.9191	17557.5
970	-2.88	-2	-34.67	33.0139	-111.919	17557.5
971	-5.6	-4.46	-169.21	33.0139	-111.919	17557.5
972	-2.6	-3.46	67.5	33.014	-111.9189	17557.5
973	-6.96	-0.22	33.96	33.014	-111.9188	17557.5
974	-0.22	-1.11	7.3	33.0141	-111.9188	17557.5
975	-2.22	3.77	-85.35	33.0141	-111.9187	17557.5
976	-1.05	-0.63	171.3	33.0141	-111.9186	17557.5
977	-1.72	-0.64	81.29	33.0141	-111.9185	17557.5
978	-2.43	0.44	-9.07	33.0141	-111.9183	17557.5
979	-5.36	-0.45	-67.84	33.0141	-111.9182	17557.5
980	-5.15	-3.5	-71.19	33.0141	-111.9182	17557.5
981	-0.7	1.41	-83.66	33.0142	-111.9181	17557.5
982	-0.43	6.6	-102.33	33.0142	-111.918	17557.5
983	-2.92	-2.71	-164.55	33.0143	-111.9178	17557.5
984	0.38	0.38	64.84	33.0143	-111.9177	17557.5
985	-7.2	-1.64	16.96	33.0143	-111.9176	17557.5
986	-8.01	-1.05	-21.19	33.0143	-111.9175	17557.5
987	-8.29	1.56	-19	33.0143	-111.9174	17557.5
988	-2.7	-3.38	28.61	33.0143	-111.9173	17557.5
989	0.88	2.19	-54.26	33.0144	-111.9172	17557.5
990	-1.51	-1.08	123.55	33.0144	-111.9171	17557.5
991	-4.57	0	12.46	33.0144	-111.917	17557.5
992	-2.13	0.85	-146.83	33.0145	-111.9168	17557.5
993	-1.39	-0.93	117.47	33.0145	-111.9167	17557.5
994	-2.57	2.8	48.46	33.0145	-111.9165	17557.5
995	-2.91	-3.13	21.37	33.0145	-111.9164	17557.5
996	-3.42	-0.23	-8.88	33.0146	-111.9163	17557.5
997	-3.65	0.24	-43.49	33.0146	-111.9162	17557.5
998	0.66	2.19	-21.78	33.0147	-111.916	17976.2
999	-3.48	-1.74	-6.05	33.0147	-111.9159	17976.2
1000	-7.71	0	-7.82	33.0147	-111.9157	17976.2
1001	-4.66	1.27	66.66	33.0147	-111.9156	17976.2
1002	-1.65	1.44	147.93	33.0147	-111.9155	17976.2
1003	-4.9	0	162.49	33.0148	-111.9154	17976.2
1004	-5.93	-1.97	-174.75	33.0148	-111.9153	17976.2
1005	-2.15	1.67	-31.58	33.0148	-111.9152	17976.2
1006	-1.32	-1.54	43.77	33.0148	-111.9151	17976.2
1007	-3.27	-0.41	24.09	33.0149	-111.9149	17976.2
1008	-4.48	-1.7	-0.43	33.0149	-111.9148	17976.2
1009	-3.39	-0.24	51.65	33.0148	-111.9146	17976.2
1010	1.51	-5.26	178.03	33.0148	-111.9144	17976.2
1011	-4.24	-2.58	-102.1	33.0148	-111.9143	17976.2
1012	3.59	-3.16	5.34	33.0148	-111.9141	17976.2
1013	-1.76	-1.32	73.71	33.0148	-111.914	17976.2
1014	0.59	-1.78	104.92	33.0148	-111.9139	17976.2
1015	-6.1	0.39	158.4	33.0148	-111.9138	17976.2
1016	-2.51	-2.71	-31.61	33.0147	-111.9136	17976.2
1017	-9.1	0.88	9.65	33.0147	-111.9135	17976.2
1018	-6.51	1.12	63.34	33.0148	-111.9133	17976.2
1019	-5.56	1.33	157.53	33.0148	-111.9132	17976.2
1020	-5.29	0.66	-34.84	33.0148	-111.9132	17976.2
1021	0.43	1.49	48.63	33.0148	-111.9131	17976.2
1022	-6.32	-5.07	73.59	33.0148	-111.9129	17976.2
1023	-2.22	-0.44	81.92	33.0149	-111.9128	17976.2
1024	1.62	-2.77	121.27	33.0149	-111.9126	17976.2
1025	-1.51	2.38	120.78	33.0149	-111.9125	17976.2
1026	-4.65	2.62	159.03	33.0149	-111.9123	17976.2
1027	-7.55	0.22	-24.07	33.0149	-111.9122	17976.2
1028	-0.45	-1.36	72.33	33.0149	-111.9121	17976.2
1029	-5.11	-6.24	89.58	33.0149	-111.912	17976.2
1030	-1.93	-3.21	72.94	33.0149	-111.9119	17976.2
1031	-2.6	0.87	94.21	33.0149	-111.9117	17976.2
1032	-1.59	4.08	121.32	33.0149	-111.9116	17976.2
1033	0	3.43	120.57	33.0149	-111.9115	17976.2
1034	-1.56	0	93.35	33.0149	-111.9113	17976.2
1035	-0.62	-3.9	55.71	33.0149	-111.9113	17976.2
1036	-6.99	0	-83.94	33.0149	-111.9112	17976.2
1037	-0.22	-6.72	104.56	33.0149	-111.9111	17976.2
1038	-3.6	-2.33	66.45	33.0148	-111.911	17976.2
1039	-4.89	1.55	84.97	33.0149	-111.9109	17976.2
1040	-9.97	0.66	49.72	33.0149	-111.9104	17976.2
1041	-2.83	-0.61	59.55	33.0148	-111.9103	17976.2
1042	0	-1.02	49.66	33.0148	-111.9102	17976.2
1043	-0.44	2.2	5.46	33.0148	-111.9101	17976.2
1044	-4.4	1.88	-12.73	33.0148	-111.91	17976.2
1045	-5.58	0.43	0	33.0148	-111.9099	17976.2
1046	-6.01	-4.15	-12.25	33.0148	-111.9097	17976.2
1047	1.14	-3.19	-167.19	33.0148	-111.9096	17976.2
1048	0.42	-0.64	126.77	33.0149	-111.9094	17976.2
1049	-6.13	0	157.93	33.0149	-111.9093	17976.2
1050	-10.44	1.1	-119.24	33.0149	-111.9092	17976.2
1051	1.29	1.72	10.45	33.0149	-111.9091	17976.2
1052	-4.23	-1.41	61.67	33.015	-111.909	17976.2
1053	-4.34	-2.06	4.29	33.015	-111.9087	18301.8
1054	-4.5	-1.57	-127.66	33.0151	-111.9085	18301.8
1055	-2.07	-5.05	-107.21	33.0151	-111.9084	18301.8
1056	-1.06	-3.18	-74.98	33.0151	-111.9082	18301.8
1057	-4.35	2.39	-14.01	33.0151	-111.9081	18301.8
1058	1.35	0.23	56.63	33.0151	-111.908	18301.8
1059	-0.99	0	19.8	33.0152	-111.9079	18301.8
1060	-1.59	-0.91	-100.85	33.0152	-111.9078	18301.8
1061	-3.34	1.25	168.76	33.0152	-111.9077	18301.8
1062	-4.75	-1.03	176.62	33.0152	-111.9076	18301.8
1063	-2.53	-0.42	139.61	33.0152	-111.9074	18301.8
1064	-2.5	-1.46	136.38	33.0152	-111.9073	18301.8
1065	-4.09	0.21	171.83	33.0152	-111.9072	18301.8
1066	-4.56	-1.59	134.12	33.0152	-111.9071	18301.8
1067	-4.66	-2.54	71.08	33.0152	-111.9067	18301.8
1068	-4.14	-1.04	49.82	33.0152	-111.9065	18301.8
1069	-6.93	0.89	29.05	33.0152	-111.9064	18301.8
1070	-2.05	1.14	50.12	33.0151	-111.9062	18301.8
1071	-3.23	-0.23	55.12	33.0151	-111.9061	18301.8
1072	-3.74	-0.93	11.43	33.0151	-111.9059	18301.8
1073	-3.78	1.78	-51.62	33.0151	-111.9058	18301.8
1074	-3.7	2.61	-49.02	33.0151	-111.9057	18301.8
1075	-3.6	-1.06	-23.09	33.015	-111.9056	18301.8
1076	-6.87	-4.56	10.43	33.015	-111.9054	18301.8
1077	-2.96	-0.63	87.34	33.0149	-111.9053	18301.8
1078	-3.26	-1.3	-161.18	33.0149	-111.9052	18301.8
1079	-5.48	-2.31	-161.05	33.0149	-111.9051	18301.8
1080	-1.72	-3.44	72.58	33.0149	-111.9048	18301.8
1081	-6.18	1.73	98.97	33.0149	-111.9047	18301.8
1082	1.54	0.44	138.81	33.0149	-111.9046	18301.8
1083	-5.02	-1.67	-160.61	33.0149	-111.9045	18301.8
1084	-4.21	2.4	-91.23	33.0149	-111.9044	18301.8
1085	-3.61	0	25.75	33.0149	-111.9044	18301.8
1086	-1.64	-2.67	104.84	33.0149	-111.9043	18301.8
1087	-8.01	0	163.76	33.0148	-111.9043	18301.8
1088	-1.9	-1.27	-62.15	33.0148	-111.9042	18301.8
1089	-5.49	-4.81	-43.86	33.0148	-111.9041	18301.8
1090	-4.67	0	-138.02	33.0148	-111.904	18301.8
1091	-3.68	-1.3	-53.25	33.0147	-111.9039	18301.8
1092	-5.69	-3.06	-19.43	33.0147	-111.9038	18301.8
1093	-3.39	1.94	-42.22	33.0146	-111.9038	18301.8
1094	0.58	0.86	-4.6	33.0145	-111.9037	18301.8
1095	-4.5	-2.11	-18.06	33.0145	-111.9037	18301.8
1096	2.43	-1.55	-159.58	33.0144	-111.9037	18301.8
1097	-4.78	-1.95	141.31	33.0143	-111.9036	18301.8
1098	-5.08	1.22	-119.9	33.0143	-111.9036	18301.8
1099	2.22	0.2	-166.46	33.0142	-111.9036	18301.8
1100	-1.49	-2.55	23.57	33.0141	-111.9035	18301.8
1101	-6.22	4.86	-56.37	33.0141	-111.9035	18301.8
1102	-3.09	0.44	-57.76	33.014	-111.9034	18301.8
1103	0.23	0.92	154.22	33.014	-111.9034	18301.8
1104	-1.97	-1.72	37.4	33.014	-111.9033	18301.8
1105	-5.38	0	-53.31	33.0139	-111.9032	18301.8
1106	2.9	-0.89	156.26	33.0139	-111.9031	18301.8
1107	-2.82	-4.97	41.51	33.0139	-111.9031	18301.8
1108	-5.14	-0.64	33.79	33.0139	-111.9029	18301.8
1109	-4.78	-3.86	23.17	33.0139	-111.9029	18301.8
1110	-2.26	0.68	-34.15	33.0139	-111.9029	18301.8
1111	-6.84	-0.46	-4.32	33.0139	-111.9028	18301.8
1112	-7.13	0	43.69	33.0139	-111.9028	18301.8
1113	-4.5	-4.94	95.78	33.0138	-111.9027	18301.8
1114	-6.44	-3.54	-161.45	33.0138	-111.9027	18301.8
1115	-5.53	-1.33	28.37	33.0138	-111.9027	18301.8
1116	-1.99	1.77	169.13	33.0137	-111.9026	18301.8
1117	-4.04	1.57	-45.26	33.0137	-111.9026	18301.8
1118	-0.67	-0.44	55.97	33.0137	-111.9025	18301.8
1119	-0.66	2.4	165.11	33.0137	-111.9025	18301.8
1120	-1.78	0	-87.23	33.0137	-111.9024	18301.8
1121	-2.67	0.67	-5.72	33.0137	-111.9023	18744.3
1122	-3.34	1.56	94.04	33.0137	-111.9022	18744.3
1123	-5.23	0.22	159.11	33.0137	-111.9022	18744.3
1124	-6.77	0.22	-86.07	33.0138	-111.9021	18744.3
1125	-5.53	0	23.28	33.0138	-111.902	18744.3
1126	-6.17	0.22	72.77	33.0138	-111.902	18744.3
1127	-6.24	-2.76	114.27	33.0138	-111.9019	18744.3
1128	-5.97	-1.91	129.56	33.0137	-111.9018	18744.3
1129	1.08	1.94	162.53	33.0137	-111.9017	18744.3
1130	-4.28	0	150.46	33.0137	-111.9016	18744.3
1131	-2.74	-4.83	101.08	33.0137	-111.9016	18744.3
1132	-6.88	-0.44	46.59	33.0136	-111.9015	18744.3
1133	-2.52	-1.6	105.1	33.0136	-111.9015	18744.3
1134	-8.42	0.45	-164.72	33.0135	-111.9014	18744.3
1135	-4.8	-0.87	-153.39	33.0135	-111.9013	18744.3
1136	-0.43	2.35	166.47	33.0135	-111.9011	18744.3
1137	-4.76	0.65	152.28	33.0135	-111.901	18744.3
1138	-4.35	-2.17	136.66	33.0135	-111.9009	18744.3
1139	-5.38	1.79	71.28	33.0134	-111.9008	18744.3
1140	-4.56	-0.91	68.45	33.0134	-111.9008	18744.3
1141	-0.45	-2.02	66.82	33.0134	-111.9007	18744.3
1142	-6.27	0.22	11.53	33.0134	-111.9006	18744.3
1143	-1.29	-3.21	-47.93	33.0134	-111.9006	18744.3
1144	-4.33	0.65	-86.55	33.0134	-111.9006	18744.3
1145	-2.43	1.77	-6.01	33.0134	-111.9005	18744.3
1146	-4.5	-3.59	12.26	33.0134	-111.9005	18744.3
1147	-1.16	-1.86	-64.47	33.0134	-111.9004	18744.3
1148	-6.44	-0.23	-78.97	33.0134	-111.9004	18744.3
1149	-5.36	-0.45	-30.19	33.0134	-111.9004	18744.3
1150	-2.99	-0.43	-99.73	33.0134	-111.9003	18744.3
1151	-7.23	-1.85	-144.72	33.0134	-111.9003	18744.3
1152	-4.87	-0.63	-9.22	33.0134	-111.9003	18744.3
1153	-3.44	-3.44	22.15	33.0135	-111.9002	18744.3
1154	-3.81	-0.45	-28.76	33.0135	-111.9002	18744.3
1155	-4.97	-0.68	-9.08	33.0135	-111.9001	18744.3
1156	-5.02	2.86	54.28	33.0135	-111.9001	18744.3
1157	-2.17	-1.21	44.78	33.0135	-111.9	18744.3
1158	-2.05	1.14	13.09	33.0135	-111.9	18744.3
1159	-3.52	0	38.57	33.0135	-111.8999	18744.3
1160	-4.24	-3.8	25.94	33.0135	-111.8998	18744.3
1161	-5.04	0.63	-84	33.0136	-111.8997	18744.3
1162	-5.27	-0.21	-46.1	33.0136	-111.8997	18744.3
1163	-3.93	1.74	59.17	33.0136	-111.8996	18744.3
1164	-6.21	-2.07	78.04	33.0136	-111.8995	18744.3
1165	-3.07	-2.13	31.5	33.0137	-111.8995	18744.3
1166	-6.93	-0.46	31.96	33.0137	-111.8994	18971
1167	-5.98	3.44	69.9	33.0137	-111.8994	18971
1168	-0.66	-0.22	33.51	33.0138	-111.8994	18971
1169	-4.25	0.42	2.71	33.0138	-111.8994	18971
1170	-5.04	-0.87	36.64	33.0138	-111.8993	18971
1171	-1.74	-0.43	28.75	33.0138	-111.8993	18971
1172	-4.23	-1.33	-65.91	33.0138	-111.8993	18971
1173	-0.45	0	-174.41	33.0138	-111.8993	18971
1174	-6.08	1.63	114.1	33.0139	-111.8993	18971
1175	-3.05	-3.05	70.69	33.0139	-111.8993	18971
1176	-1.77	0	3.09	33.0139	-111.8992	18971
1177	-2.35	-2.14	-53.04	33.014	-111.8992	18971
1178	-4.83	-1.68	-154.47	33.014	-111.8991	18971
1179	-2.64	-2.86	106.73	33.014	-111.899	18971
1180	-5.42	1.8	61.09	33.014	-111.899	18971
1181	-6.67	0.23	45.14	33.0141	-111.8989	18971
1182	-3.3	-1.54	-9.05	33.0141	-111.8989	18971
1183	-3.73	0	-108.72	33.0141	-111.8988	18971
1184	-4.61	0.92	-170.18	33.0141	-111.8988	18971
1185	-3.95	-4.37	114.65	33.0142	-111.8988	18971
1186	-3.77	-1.33	54.57	33.0142	-111.8988	18971
1187	-7.46	0.68	55.68	33.0142	-111.8988	18971
1188	-3.13	0.89	89.27	33.0142	-111.8988	18971
1189	-2.19	-0.44	87.62	33.0143	-111.8987	18971
1190	-3.33	-0.67	75.86	33.0143	-111.8987	18971
1191	-3.09	-1.55	78.69	33.0143	-111.8987	18971
1192	0	0	40.25	33.0144	-111.8987	18971
1193	-3.83	-1.7	14.04	33.0144	-111.8987	18971
1194	-5.84	-4.03	15.1	33.0145	-111.8986	18971
1195	-4.67	-1.11	27.1	33.0146	-111.8985	19118.7
1196	-3.31	0.66	44.58	33.0146	-111.8985	19118.7
1197	-6.51	0	38.41	33.0146	-111.8985	19118.7
1198	-1.93	0.21	47.18	33.0146	-111.8984	19118.7
1199	-0.21	-2.74	78.27	33.0146	-111.8984	19118.7
1200	-4.18	-1.54	98.1	33.0147	-111.8984	19118.7
1201	-0.94	-0.24	148.3	33.0147	-111.8984	19118.7
1202	-1.23	1.73	-173.58	33.0148	-111.8983	19118.7
1203	0.66	0.66	-168.72	33.0148	-111.8983	19118.7
1204	-2.23	0.2	157.28	33.0148	-111.8982	19118.7
1205	1.01	-3.81	84.37	33.0148	-111.8982	19118.7
1206	-4.51	0.2	-25.75	33.0148	-111.8982	19118.7
1207	-2.94	-1.26	-116.37	33.0148	-111.8982	19118.7
1208	-3.14	-0.22	135.31	33.0148	-111.8981	19118.7
1209	-1.22	-0.73	48.28	33.0148	-111.8981	19118.7
1210	-4.68	-3.93	-1.35	33.0148	-111.898	19118.7
1211	-0.89	1.55	166.14	33.0148	-111.8979	19118.7
1212	-1.25	-1.87	76.41	33.0148	-111.8979	19118.7
1213	-5.17	4.08	7.14	33.0148	-111.8978	19118.7
1214	-3.35	-0.45	12.77	33.0148	-111.8978	19118.7
1215	-3.38	-1.58	23.03	33.0148	-111.8977	19118.7
1216	-5.33	1.69	17.53	33.0148	-111.8977	19118.7
1217	-5.02	-2.63	23.12	33.0148	-111.8976	19118.7
1218	1.99	-3.97	-7.82	33.0149	-111.8975	19118.7
1219	-4.75	-0.22	-31.81	33.0149	-111.8975	19118.7
1220	1.49	1.06	72	33.0149	-111.8974	19118.7
1221	-3.6	0.64	-171.15	33.0149	-111.8973	19118.7
1222	-6.78	0.99	-148.5	33.0149	-111.8973	19118.7
1223	-9.53	0	-56.27	33.0149	-111.8972	19118.7
1224	-3.37	-2.91	39.61	33.0149	-111.8972	19118.7
1225	-5.36	-8.55	-69.73	33.015	-111.897	19118.7
1226	4.96	-6.01	150.03	33.015	-111.8969	19118.7
1227	-1.24	3.51	-91.9	33.015	-111.8969	19118.7
1228	-3.26	1.63	-47.72	33.0151	-111.8968	19118.7
1229	-3.52	4.34	35.03	33.0151	-111.8968	19118.7
1230	-7.83	-0.21	107.01	33.0152	-111.8968	19118.7
1231	1.06	1.06	-118.5	33.0152	-111.8967	19118.7
1232	-5.37	1.93	38.64	33.0153	-111.8966	19118.7
1233	0.21	2.3	103.76	33.0153	-111.8966	19118.7
1234	-6.5	-0.61	114.4	33.0153	-111.8965	19118.7
1235	-5.91	-0.61	-176.52	33.0153	-111.8965	19118.7
1236	-6.99	0.63	-8.37	33.0153	-111.8964	19118.7
1237	-4.59	-2.5	110.32	33.0153	-111.8964	19118.7
1238	1.46	1.25	-79.03	33.0154	-111.8962	19373.3
1239	-3.52	2.2	26.32	33.0155	-111.8961	19373.3
1240	0	-2.18	74.15	33.0155	-111.896	19373.3
1241	-8.89	-1.08	94.28	33.0156	-111.8959	19373.3
1242	-3.74	-1.98	102.88	33.0157	-111.8959	19373.3
1243	0.9	-0.45	112.74	33.0157	-111.8958	19373.3
1244	-4.29	0	102.62	33.0158	-111.8958	19373.3
1245	-4.84	-1.15	125.47	33.0159	-111.8957	19373.3
1246	0.46	0.46	152.21	33.016	-111.8957	19373.3
1247	-3.48	0.75	118.36	33.0161	-111.8957	19373.3
1248	-2.5	1.25	171.27	33.0161	-111.8956	19373.3
1249	-3.93	-2.21	-76.68	33.0162	-111.8956	19373.3
1250	-0.23	-4.29	-153.34	33.0163	-111.8957	19373.3
1251	-9.7	1.05	133.86	33.0163	-111.8957	19373.3
1252	1.92	0	-33.72	33.0164	-111.8957	19373.3
1253	-7.28	5.11	30.75	33.0164	-111.8957	19541.2
1254	-3.44	1.82	-19.27	33.0165	-111.8957	19541.2
1255	-2.25	-1.64	-19.81	33.0165	-111.8956	19541.2
1256	-10.14	0.21	5.56	33.0165	-111.8955	19541.2
1257	-6.78	1.69	36.7	33.0166	-111.8954	19541.2
1258	-8.01	-2.94	79.52	33.0166	-111.8954	19541.2
1259	-1.84	3.88	-171.35	33.0166	-111.8954	19541.2
1260	-1.27	-1.27	-142.33	33.0167	-111.8954	19541.2
1261	0.7	-7.38	77.74	33.0167	-111.8953	19541.2
1262	-0.66	2.63	6.67	33.0167	-111.8952	19541.2
1263	-5.09	3.76	44.43	33.0167	-111.8951	19541.2
1264	-5.96	0.23	61.93	33.0167	-111.895	19541.2
1265	-5.57	-5.55	26.16	33.0167	-111.8949	19541.2
1266	-5.09	-5.29	-3.62	33.0167	-111.8947	19541.2
1267	-4.91	-3.67	-49.34	33.0167	-111.8947	19541.2
1268	3.03	0.7	7	33.0166	-111.8944	19541.2
1269	-0.4	4.83	0	33.0166	-111.8943	19541.2
1270	-7.18	-0.82	67.23	33.0166	-111.8942	19541.2
1271	-5.51	0.69	79.3	33.0166	-111.8941	19541.2
1272	0.43	-3.2	159.52	33.0166	-111.8939	19541.2
1273	-2.9	-0.21	130.83	33.0166	-111.8939	19541.2
1274	-2.45	-9.32	86.07	33.0166	-111.8938	19541.2
1275	-0.88	0.22	85.62	33.0166	-111.8938	19541.2
1276	-3.24	-1.16	121.91	33.0166	-111.8938	19541.2
1277	-2.82	-6.69	91.12	33.0166	-111.8937	19541.2
1278	0.23	-1.58	-89.96	33.0166	-111.8937	19541.2
1279	-1.61	5.73	97.31	33.0166	-111.8936	19541.2
1280	4.51	-4.5	-164.34	33.0166	-111.8934	19541.2
1281	-0.97	2.53	-25.53	33.0166	-111.8933	19541.2
1282	-5.55	1.19	41.34	33.0166	-111.8933	19541.2
1283	-3.73	0.44	43.56	33.0166	-111.8933	19541.2
